$GPGSV,3,1,12,02,39,291,45,25,57,165,45,04,48,239,46,13,82,049,42*7C
$GPGSV,3,2,12,20,14,124,28,23,50,071,48,16,18,053,39,27,40,186,33*73
$GPGSV,3,3,12,10,10,299,36,08,13,195,32,07,01,001,20,06,03,352,*7F
$GPGLL,5231.8145,N,1322.9127,E,000001.0,A,,*07
$GPGGA,000001.000,5231.8145,N,01322.9127,E,1,08,1.0,0.0,M,0.0,M,,*66
$GPGSA,A,3,25,20,23,24,16,13,11,1,4,,,,1.763,0.931,1.497*33
$GPRMC,000001.000,A,5231.8145,N,01322.9127,E,37.830,65.146,030108,0.0,E,*42
$GPGST,000001.0,14.0,10.9,6.3,76.5,6.1,9.8,22.2*6E
$GPVTG,78.8,T,80.9,M,37.830,N,70.000,K,A*2D
$GPGSV,3,1,12,02,39,291,45,25,57,165,45,04,48,239,46,13,82,049,42*7C
$GPGSV,3,2,12,20,14,124,28,23,50,071,48,16,18,053,39,27,40,186,33*73
$GPGSV,3,3,12,10,10,299,36,08,13,195,32,07,01,001,20,06,03,352,*7F
$GPGLL,5231.8191,N,1322.9291,E,000002.0,A,,*03
$GPGGA,000002.000,5231.8191,N,01322.9291,E,1,08,1.0,0.0,M,0.0,M,,*62
$GPGSA,A,3,25,20,23,24,16,13,11,1,4,,,,1.763,0.931,1.497*33
$GPRMC,000002.000,A,5231.8191,N,01322.9291,E,37.830,65.146,030108,0.0,E,*46
$GPGST,000002.0,14.0,10.9,6.3,76.5,6.1,9.8,22.2*6D
$GPVTG,78.8,T,80.9,M,37.830,N,70.000,K,A*2D
$GPGSV,3,1,12,02,39,291,45,25,57,165,45,04,48,239,46,13,82,049,42*7C
$GPGSV,3,2,12,20,14,124,28,23,50,071,48,16,18,053,39,27,40,186,33*73
$GPGSV,3,3,12,10,10,299,36,08,13,195,32,07,01,001,20,06,03,352,*7F
$GPGLL,5231.8235,N,1322.9448,E,000003.0,A,,*0D
$GPGGA,000003.000,5231.8235,N,01322.9448,E,1,08,1.0,0.0,M,0.0,M,,*6C
$GPGSA,A,3,25,20,23,24,16,13,11,1,4,,,,1.763,0.931,1.497*33
$GPRMC,000003.000,A,5231.8235,N,01322.9448,E,37.830,65.848,030108,0.0,E,*4F
$GPGST,000003.0,14.0,10.9,6.3,76.5,6.1,9.8,22.2*6C
$GPVTG,78.8,T,80.9,M,37.830,N,70.000,K,A*2D
$GPGSV,3,1,12,02,39,291,45,25,57,165,45,04,48,239,46,13,82,049,42*7C
$GPGSV,3,2,12,20,14,124,28,23,50,071,48,16,18,053,39,27,40,186,33*73
$GPGSV,3,3,12,10,10,299,36,08,13,195,32,07,01,001,20,06,03,352,*7F
$GPGLL,5231.8278,N,1322.9605,E,000004.0,A,,*08
$GPGGA,000004.000,5231.8278,N,01322.9605,E,1,08,1.0,0.0,M,0.0,M,,*69
$GPGSA,A,3,25,20,23,24,16,13,11,1,4,,,,1.763,0.931,1.497*33
$GPRMC,000004.000,A,5231.8278,N,01322.9605,E,37.830,64.484,030108,0.0,E,*47
$GPGST,000004.0,14.0,10.9,6.3,76.5,6.1,9.8,22.2*6B
$GPVTG,78.8,T,80.9,M,37.830,N,70.000,K,A*2D
$GPGSV,3,1,12,02,39,291,45,25,57,165,45,04,48,239,46,13,82,049,42*7C
$GPGSV,3,2,12,20,14,124,28,23,50,071,48,16,18,053,39,27,40,186,33*73
$GPGSV,3,3,12,10,10,299,36,08,13,195,32,07,01,001,20,06,03,352,*7F
$GPGLL,5231.8324,N,1322.9760,E,000005.0,A,,*03
$GPGGA,000005.000,5231.8324,N,01322.9760,E,1,08,1.0,0.0,M,0.0,M,,*62
$GPGSA,A,3,25,20,23,24,16,13,11,1,4,,,,1.763,0.931,1.497*33
$GPRMC,000005.000,A,5231.8324,N,01322.9760,E,37.830,64.484,030108,0.0,E,*4C
$GPGST,000005.0,14.0,10.9,6.3,76.5,6.1,9.8,22.2*6A
$GPVTG,78.8,T,80.9,M,37.830,N,70.000,K,A*2D
$GPGSV,3,1,12,02,39,291,45,25,57,165,45,04,48,239,46,13,82,049,42*7C
$GPGSV,3,2,12,20,14,124,28,23,50,071,48,16,18,053,39,27,40,186,33*73
$GPGSV,3,3,12,10,10,299,36,08,13,195,32,07,01,001,20,06,03,352,*7F
$GPGLL,5231.8311,N,1322.9893,E,000006.0,A,,*05
$GPGGA,000006.000,5231.8311,N,01322.9893,E,1,08,1.0,0.0,M,0.0,M,,*64
$GPGSA,A,3,25,20,23,24,16,13,11,1,4,,,,1.763,0.931,1.497*33
$GPRMC,000006.000,A,5231.8311,N,01322.9893,E,37.830,142.103,030108,0.0,E,*75
$GPGST,000006.0,14.0,10.9,6.3,76.5,6.1,9.8,22.2*69
$GPVTG,78.8,T,80.9,M,37.830,N,70.000,K,A*2D
$GPGSV,3,1,12,02,39,291,45,25,57,165,45,04,48,239,46,13,82,049,42*7C
$GPGSV,3,2,12,20,14,124,28,23,50,071,48,16,18,053,39,27,40,186,33*73
$GPGSV,3,3,12,10,10,299,36,08,13,195,32,07,01,001,20,06,03,352,*7F
$GPGLL,5231.8227,N,1322.9999,E,000007.0,A,,*0B
$GPGGA,000007.000,5231.8227,N,01322.9999,E,1,08,1.0,0.0,M,0.0,M,,*6A
$GPGSA,A,3,25,20,23,24,16,13,11,1,4,,,,1.763,0.931,1.497*33
$GPRMC,000007.000,A,5231.8227,N,01322.9999,E,37.830,142.103,030108,0.0,E,*7B
$GPGST,000007.0,14.0,10.9,6.3,76.5,6.1,9.8,22.2*68
$GPVTG,78.8,T,80.9,M,37.830,N,70.000,K,A*2D
$GPGSV,3,1,12,02,39,291,45,25,57,165,45,04,48,239,46,13,82,049,42*7C
$GPGSV,3,2,12,20,14,124,28,23,50,071,48,16,18,053,39,27,40,186,33*73
$GPGSV,3,3,12,10,10,299,36,08,13,195,32,07,01,001,20,06,03,352,*7F
$GPGLL,5231.8144,N,1323.0105,E,000008.0,A,,*07
$GPGGA,000008.000,5231.8144,N,01323.0105,E,1,08,1.0,0.0,M,0.0,M,,*66
$GPGSA,A,3,25,20,23,24,16,13,11,1,4,,,,1.763,0.931,1.497*33
$GPRMC,000008.000,A,5231.8144,N,01323.0105,E,37.830,142.103,030108,0.0,E,*77
$GPGST,000008.0,14.0,10.9,6.3,76.5,6.1,9.8,22.2*67
$GPVTG,78.8,T,80.9,M,37.830,N,70.000,K,A*2D
$GPGSV,3,1,12,02,39,291,45,25,57,165,45,04,48,239,46,13,82,049,42*7C
$GPGSV,3,2,12,20,14,124,28,23,50,071,48,16,18,053,39,27,40,186,33*73
$GPGSV,3,3,12,10,10,299,36,08,13,195,32,07,01,001,20,06,03,352,*7F
$GPGLL,5231.8060,N,1323.0211,E,000009.0,A,,*07
$GPGGA,000009.000,5231.8060,N,01323.0211,E,1,08,1.0,0.0,M,0.0,M,,*66
$GPGSA,A,3,25,20,23,24,16,13,11,1,4,,,,1.763,0.931,1.497*33
$GPRMC,000009.000,A,5231.8060,N,01323.0211,E,37.830,142.103,030108,0.0,E,*77
$GPGST,000009.0,14.0,10.9,6.3,76.5,6.1,9.8,22.2*66
$GPVTG,78.8,T,80.9,M,37.830,N,70.000,K,A*2D
$GPGSV,3,1,12,02,39,291,45,25,57,165,45,04,48,239,46,13,82,049,42*7C
$GPGSV,3,2,12,20,14,124,28,23,50,071,48,16,18,053,39,27,40,186,33*73
$GPGSV,3,3,12,10,10,299,36,08,13,195,32,07,01,001,20,06,03,352,*7F
$GPGLL,5231.7976,N,1323.0315,E,000010.0,A,,*0B
$GPGGA,000010.000,5231.7976,N,01323.0315,E,1,08,1.0,0.0,M,0.0,M,,*6A
$GPGSA,A,3,25,20,23,24,16,13,11,1,4,,,,1.763,0.931,1.497*33
$GPRMC,000010.000,A,5231.7976,N,01323.0315,E,37.830,143.649,030108,0.0,E,*73
$GPGST,000010.0,14.0,10.9,6.3,76.5,6.1,9.8,22.2*6E
$GPVTG,78.8,T,80.9,M,37.830,N,70.000,K,A*2D
$GPGSV,3,1,12,02,39,291,45,25,57,165,45,04,48,239,46,13,82,049,42*7C
$GPGSV,3,2,12,20,14,124,28,23,50,071,48,16,18,053,39,27,40,186,33*73
$GPGSV,3,3,12,10,10,299,36,08,13,195,32,07,01,001,20,06,03,352,*7F
$GPGLL,5231.7892,N,1323.0417,E,000011.0,A,,*04
$GPGGA,000011.000,5231.7892,N,01323.0417,E,1,08,1.0,0.0,M,0.0,M,,*65
$GPGSA,A,3,25,20,23,24,16,13,11,1,4,,,,1.763,0.931,1.497*33
$GPRMC,000011.000,A,5231.7892,N,01323.0417,E,37.830,143.649,030108,0.0,E,*7C
$GPGST,000011.0,14.0,10.9,6.3,76.5,6.1,9.8,22.2*6F
$GPVTG,78.8,T,80.9,M,37.830,N,70.000,K,A*2D
$GPGSV,3,1,12,02,39,291,45,25,57,165,45,04,48,239,46,13,82,049,42*7C
$GPGSV,3,2,12,20,14,124,28,23,50,071,48,16,18,053,39,27,40,186,33*73
$GPGSV,3,3,12,10,10,299,36,08,13,195,32,07,01,001,20,06,03,352,*7F
$GPGLL,5231.7807,N,1323.0518,E,000012.0,A,,*05
$GPGGA,000012.000,5231.7807,N,01323.0518,E,1,08,1.0,0.0,M,0.0,M,,*64
$GPGSA,A,3,25,20,23,24,16,13,11,1,4,,,,1.763,0.931,1.497*33
$GPRMC,000012.000,A,5231.7807,N,01323.0518,E,37.830,143.649,030108,0.0,E,*7D
$GPGST,000012.0,14.0,10.9,6.3,76.5,6.1,9.8,22.2*6C
$GPVTG,78.8,T,80.9,M,37.830,N,70.000,K,A*2D
$GPGSV,3,1,12,02,39,291,45,25,57,165,45,04,48,239,46,13,82,049,42*7C
$GPGSV,3,2,12,20,14,124,28,23,50,071,48,16,18,053,39,27,40,186,33*73
$GPGSV,3,3,12,10,10,299,36,08,13,195,32,07,01,001,20,06,03,352,*7F
$GPGLL,5231.7722,N,1323.0620,E,000013.0,A,,*04
$GPGGA,000013.000,5231.7722,N,01323.0620,E,1,08,1.0,0.0,M,0.0,M,,*65
$GPGSA,A,3,25,20,23,24,16,13,11,1,4,,,,1.763,0.931,1.497*33
$GPRMC,000013.000,A,5231.7722,N,01323.0620,E,37.830,143.649,030108,0.0,E,*7C
$GPGST,000013.0,14.0,10.9,6.3,76.5,6.1,9.8,22.2*6D
$GPVTG,78.8,T,80.9,M,37.830,N,70.000,K,A*2D
$GPGSV,3,1,12,02,39,291,45,25,57,165,45,04,48,239,46,13,82,049,42*7C
$GPGSV,3,2,12,20,14,124,28,23,50,071,48,16,18,053,39,27,40,186,33*73
$GPGSV,3,3,12,10,10,299,36,08,13,195,32,07,01,001,20,06,03,352,*7F
$GPGLL,5231.7637,N,1323.0722,E,000014.0,A,,*05
$GPGGA,000014.000,5231.7637,N,01323.0722,E,1,08,1.0,0.0,M,0.0,M,,*64
$GPGSA,A,3,25,20,23,24,16,13,11,1,4,,,,1.763,0.931,1.497*33
$GPRMC,000014.000,A,5231.7637,N,01323.0722,E,37.830,143.649,030108,0.0,E,*7D
$GPGST,000014.0,14.0,10.9,6.3,76.5,6.1,9.8,22.2*6A
$GPVTG,78.8,T,80.9,M,37.830,N,70.000,K,A*2D
$GPGSV,3,1,12,02,39,291,45,25,57,165,45,04,48,239,46,13,82,049,42*7C
$GPGSV,3,2,12,20,14,124,28,23,50,071,48,16,18,053,39,27,40,186,33*73
$GPGSV,3,3,12,10,10,299,36,08,13,195,32,07,01,001,20,06,03,352,*7F
$GPGLL,5231.7552,N,1323.0825,E,000015.0,A,,*0C
$GPGGA,000015.000,5231.7552,N,01323.0825,E,1,08,1.0,0.0,M,0.0,M,,*6D
$GPGSA,A,3,25,20,23,24,16,13,11,1,4,,,,1.763,0.931,1.497*33
$GPRMC,000015.000,A,5231.7552,N,01323.0825,E,37.830,143.285,030108,0.0,E,*70
$GPGST,000015.0,14.0,10.9,6.3,76.5,6.1,9.8,22.2*6B
$GPVTG,78.8,T,80.9,M,37.830,N,70.000,K,A*2D
$GPGSV,3,1,12,02,39,291,45,25,57,165,45,04,48,239,46,13,82,049,42*7C
$GPGSV,3,2,12,20,14,124,28,23,50,071,48,16,18,053,39,27,40,186,33*73
$GPGSV,3,3,12,10,10,299,36,08,13,195,32,07,01,001,20,06,03,352,*7F
$GPGLL,5231.7466,N,1323.0929,E,000016.0,A,,*04
$GPGGA,000016.000,5231.7466,N,01323.0929,E,1,08,1.0,0.0,M,0.0,M,,*65
$GPGSA,A,3,25,20,23,24,16,13,11,1,4,,,,1.763,0.931,1.497*33
$GPRMC,000016.000,A,5231.7466,N,01323.0929,E,37.830,143.285,030108,0.0,E,*78
$GPGST,000016.0,14.0,10.9,6.3,76.5,6.1,9.8,22.2*68
$GPVTG,78.8,T,80.9,M,37.830,N,70.000,K,A*2D
$GPGSV,3,1,12,02,39,291,45,25,57,165,45,04,48,239,46,13,82,049,42*7C
$GPGSV,3,2,12,20,14,124,28,23,50,071,48,16,18,053,39,27,40,186,33*73
$GPGSV,3,3,12,10,10,299,36,08,13,195,32,07,01,001,20,06,03,352,*7F
$GPGLL,5231.7380,N,1323.1033,E,000017.0,A,,*09
$GPGGA,000017.000,5231.7380,N,01323.1033,E,1,08,1.0,0.0,M,0.0,M,,*68
$GPGSA,A,3,25,20,23,24,16,13,11,1,4,,,,1.763,0.931,1.497*33
$GPRMC,000017.000,A,5231.7380,N,01323.1033,E,37.830,143.285,030108,0.0,E,*75
$GPGST,000017.0,14.0,10.9,6.3,76.5,6.1,9.8,22.2*69
$GPVTG,78.8,T,80.9,M,37.830,N,70.000,K,A*2D
$GPGSV,3,1,12,02,39,291,45,25,57,165,45,04,48,239,46,13,82,049,42*7C
$GPGSV,3,2,12,20,14,124,28,23,50,071,48,16,18,053,39,27,40,186,33*73
$GPGSV,3,3,12,10,10,299,36,08,13,195,32,07,01,001,20,06,03,352,*7F
$GPGLL,5231.7292,N,1323.1146,E,000018.0,A,,*07
$GPGGA,000018.000,5231.7292,N,01323.1146,E,1,08,1.0,0.0,M,0.0,M,,*66
$GPGSA,A,3,25,20,23,24,16,13,11,1,4,,,,1.763,0.931,1.497*33
$GPRMC,000018.000,A,5231.7292,N,01323.1146,E,37.830,143.162,030108,0.0,E,*71
$GPGST,000018.0,14.0,10.9,6.3,76.5,6.1,9.8,22.2*66
$GPVTG,78.8,T,80.9,M,37.830,N,70.000,K,A*2D
$GPGSV,3,1,12,02,39,291,45,25,57,165,45,04,48,239,46,13,82,049,42*7C
$GPGSV,3,2,12,20,14,124,28,23,50,071,48,16,18,053,39,27,40,186,33*73
$GPGSV,3,3,12,10,10,299,36,08,13,195,32,07,01,001,20,06,03,352,*7F
$GPGLL,5231.7248,N,1323.1270,E,000019.0,A,,*07
$GPGGA,000019.000,5231.7248,N,01323.1270,E,1,08,1.0,0.0,M,0.0,M,,*66
$GPGSA,A,3,25,20,23,24,16,13,11,1,4,,,,1.763,0.931,1.497*33
$GPRMC,000019.000,A,5231.7248,N,01323.1270,E,37.830,67.985,030108,0.0,E,*47
$GPGST,000019.0,14.0,10.9,6.3,76.5,6.1,9.8,22.2*67
$GPVTG,78.8,T,80.9,M,37.830,N,70.000,K,A*2D
$GPGSV,3,1,12,02,39,291,45,25,57,165,45,04,48,239,46,13,82,049,42*7C
$GPGSV,3,2,12,20,14,124,28,23,50,071,48,16,18,053,39,27,40,186,33*73
$GPGSV,3,3,12,10,10,299,36,08,13,195,32,07,01,001,20,06,03,352,*7F
$GPGLL,5231.7288,N,1323.1429,E,000020.0,A,,*0B
$GPGGA,000020.000,5231.7288,N,01323.1429,E,1,08,1.0,0.0,M,0.0,M,,*6A
$GPGSA,A,3,25,20,23,24,16,13,11,1,4,,,,1.763,0.931,1.497*33
$GPRMC,000020.000,A,5231.7288,N,01323.1429,E,37.830,67.985,030108,0.0,E,*4B
$GPGST,000020.0,14.0,10.9,6.3,76.5,6.1,9.8,22.2*6D
$GPVTG,78.8,T,80.9,M,37.830,N,70.000,K,A*2D
$GPGSV,3,1,12,02,39,291,45,25,57,165,45,04,48,239,46,13,82,049,42*7C
$GPGSV,3,2,12,20,14,124,28,23,50,071,48,16,18,053,39,27,40,186,33*73
$GPGSV,3,3,12,10,10,299,36,08,13,195,32,07,01,001,20,06,03,352,*7F
$GPGLL,5231.7327,N,1323.1587,E,000021.0,A,,*0B
$GPGGA,000021.000,5231.7327,N,01323.1587,E,1,08,1.0,0.0,M,0.0,M,,*6A
$GPGSA,A,3,25,20,23,24,16,13,11,1,4,,,,1.763,0.931,1.497*33
$GPRMC,000021.000,A,5231.7327,N,01323.1587,E,37.830,67.985,030108,0.0,E,*4B
$GPGST,000021.0,14.0,10.9,6.3,76.5,6.1,9.8,22.2*6C
$GPVTG,78.8,T,80.9,M,37.830,N,70.000,K,A*2D
$GPGSV,3,1,12,02,39,291,45,25,57,165,45,04,48,239,46,13,82,049,42*7C
$GPGSV,3,2,12,20,14,124,28,23,50,071,48,16,18,053,39,27,40,186,33*73
$GPGSV,3,3,12,10,10,299,36,08,13,195,32,07,01,001,20,06,03,352,*7F
$GPGLL,5231.7366,N,1323.1746,E,000022.0,A,,*02
$GPGGA,000022.000,5231.7366,N,01323.1746,E,1,08,1.0,0.0,M,0.0,M,,*63
$GPGSA,A,3,25,20,23,24,16,13,11,1,4,,,,1.763,0.931,1.497*33
$GPRMC,000022.000,A,5231.7366,N,01323.1746,E,37.830,67.985,030108,0.0,E,*42
$GPGST,000022.0,14.0,10.9,6.3,76.5,6.1,9.8,22.2*6F
$GPVTG,78.8,T,80.9,M,37.830,N,70.000,K,A*2D
$GPGSV,3,1,12,02,39,291,45,25,57,165,45,04,48,239,46,13,82,049,42*7C
$GPGSV,3,2,12,20,14,124,28,23,50,071,48,16,18,053,39,27,40,186,33*73
$GPGSV,3,3,12,10,10,299,36,08,13,195,32,07,01,001,20,06,03,352,*7F
$GPGLL,5231.7406,N,1323.1905,E,000023.0,A,,*0B
$GPGGA,000023.000,5231.7406,N,01323.1905,E,1,08,1.0,0.0,M,0.0,M,,*6A
$GPGSA,A,3,25,20,23,24,16,13,11,1,4,,,,1.763,0.931,1.497*33
$GPRMC,000023.000,A,5231.7406,N,01323.1905,E,37.830,67.985,030108,0.0,E,*4B
$GPGST,000023.0,14.0,10.9,6.3,76.5,6.1,9.8,22.2*6E
$GPVTG,78.8,T,80.9,M,37.830,N,70.000,K,A*2D
$GPGSV,3,1,12,02,39,291,45,25,57,165,45,04,48,239,46,13,82,049,42*7C
$GPGSV,3,2,12,20,14,124,28,23,50,071,48,16,18,053,39,27,40,186,33*73
$GPGSV,3,3,12,10,10,299,36,08,13,195,32,07,01,001,20,06,03,352,*7F
$GPGLL,5231.7445,N,1323.2064,E,000024.0,A,,*06
$GPGGA,000024.000,5231.7445,N,01323.2064,E,1,08,1.0,0.0,M,0.0,M,,*67
$GPGSA,A,3,25,20,23,24,16,13,11,1,4,,,,1.763,0.931,1.497*33
$GPRMC,000024.000,A,5231.7445,N,01323.2064,E,37.830,67.985,030108,0.0,E,*46
$GPGST,000024.0,14.0,10.9,6.3,76.5,6.1,9.8,22.2*69
$GPVTG,78.8,T,80.9,M,37.830,N,70.000,K,A*2D
$GPGSV,3,1,12,02,39,291,45,25,57,165,45,04,48,239,46,13,82,049,42*7C
$GPGSV,3,2,12,20,14,124,28,23,50,071,48,16,18,053,39,27,40,186,33*73
$GPGSV,3,3,12,10,10,299,36,08,13,195,32,07,01,001,20,06,03,352,*7F
$GPGLL,5231.7484,N,1323.2222,E,000025.0,A,,*0A
$GPGGA,000025.000,5231.7484,N,01323.2222,E,1,08,1.0,0.0,M,0.0,M,,*6B
$GPGSA,A,3,25,20,23,24,16,13,11,1,4,,,,1.763,0.931,1.497*33
$GPRMC,000025.000,A,5231.7484,N,01323.2222,E,37.830,67.985,030108,0.0,E,*4A
$GPGST,000025.0,14.0,10.9,6.3,76.5,6.1,9.8,22.2*68
$GPVTG,78.8,T,80.9,M,37.830,N,70.000,K,A*2D
$GPGSV,3,1,12,02,39,291,45,25,57,165,45,04,48,239,46,13,82,049,42*7C
$GPGSV,3,2,12,20,14,124,28,23,50,071,48,16,18,053,39,27,40,186,33*73
$GPGSV,3,3,12,10,10,299,36,08,13,195,32,07,01,001,20,06,03,352,*7F
$GPGLL,5231.7524,N,1323.2381,E,000026.0,A,,*0A
$GPGGA,000026.000,5231.7524,N,01323.2381,E,1,08,1.0,0.0,M,0.0,M,,*6B
$GPGSA,A,3,25,20,23,24,16,13,11,1,4,,,,1.763,0.931,1.497*33
$GPRMC,000026.000,A,5231.7524,N,01323.2381,E,37.830,67.985,030108,0.0,E,*4A
$GPGST,000026.0,14.0,10.9,6.3,76.5,6.1,9.8,22.2*6B
$GPVTG,78.8,T,80.9,M,37.830,N,70.000,K,A*2D
$GPGSV,3,1,12,02,39,291,45,25,57,165,45,04,48,239,46,13,82,049,42*7C
$GPGSV,3,2,12,20,14,124,28,23,50,071,48,16,18,053,39,27,40,186,33*73
$GPGSV,3,3,12,10,10,299,36,08,13,195,32,07,01,001,20,06,03,352,*7F
$GPGLL,5231.7563,N,1323.2540,E,000027.0,A,,*03
$GPGGA,000027.000,5231.7563,N,01323.2540,E,1,08,1.0,0.0,M,0.0,M,,*62
$GPGSA,A,3,25,20,23,24,16,13,11,1,4,,,,1.763,0.931,1.497*33
$GPRMC,000027.000,A,5231.7563,N,01323.2540,E,37.830,67.985,030108,0.0,E,*43
$GPGST,000027.0,14.0,10.9,6.3,76.5,6.1,9.8,22.2*6A
$GPVTG,78.8,T,80.9,M,37.830,N,70.000,K,A*2D
$GPGSV,3,1,12,02,39,291,45,25,57,165,45,04,48,239,46,13,82,049,42*7C
$GPGSV,3,2,12,20,14,124,28,23,50,071,48,16,18,053,39,27,40,186,33*73
$GPGSV,3,3,12,10,10,299,36,08,13,195,32,07,01,001,20,06,03,352,*7F
$GPGLL,5231.7602,N,1323.2698,E,000028.0,A,,*0E
$GPGGA,000028.000,5231.7602,N,01323.2698,E,1,08,1.0,0.0,M,0.0,M,,*6F
$GPGSA,A,3,25,20,23,24,16,13,11,1,4,,,,1.763,0.931,1.497*33
$GPRMC,000028.000,A,5231.7602,N,01323.2698,E,37.830,67.985,030108,0.0,E,*4E
$GPGST,000028.0,14.0,10.9,6.3,76.5,6.1,9.8,22.2*65
$GPVTG,78.8,T,80.9,M,37.830,N,70.000,K,A*2D
$GPGSV,3,1,12,02,39,291,45,25,57,165,45,04,48,239,46,13,82,049,42*7C
$GPGSV,3,2,12,20,14,124,28,23,50,071,48,16,18,053,39,27,40,186,33*73
$GPGSV,3,3,12,10,10,299,36,08,13,195,32,07,01,001,20,06,03,352,*7F
$GPGLL,5231.7642,N,1323.2858,E,000029.0,A,,*09
$GPGGA,000029.000,5231.7642,N,01323.2858,E,1,08,1.0,0.0,M,0.0,M,,*68
$GPGSA,A,3,25,20,23,24,16,13,11,1,4,,,,1.763,0.931,1.497*33
$GPRMC,000029.000,A,5231.7642,N,01323.2858,E,37.830,68.243,030108,0.0,E,*47
$GPGST,000029.0,14.0,10.9,6.3,76.5,6.1,9.8,22.2*64
$GPVTG,78.8,T,80.9,M,37.830,N,70.000,K,A*2D
$GPGSV,3,1,12,02,39,291,45,25,57,165,45,04,48,239,46,13,82,049,42*7C
$GPGSV,3,2,12,20,14,124,28,23,50,071,48,16,18,053,39,27,40,186,33*73
$GPGSV,3,3,12,10,10,299,36,08,13,195,32,07,01,001,20,06,03,352,*7F
$GPGLL,5231.7681,N,1323.3017,E,000030.0,A,,*0C
$GPGGA,000030.000,5231.7681,N,01323.3017,E,1,08,1.0,0.0,M,0.0,M,,*6D
$GPGSA,A,3,25,20,23,24,16,13,11,1,4,,,,1.763,0.931,1.497*33
$GPRMC,000030.000,A,5231.7681,N,01323.3017,E,37.830,68.243,030108,0.0,E,*42
$GPGST,000030.0,14.0,10.9,6.3,76.5,6.1,9.8,22.2*6C
$GPVTG,78.8,T,80.9,M,37.830,N,70.000,K,A*2D
$GPGSV,3,1,12,02,39,291,45,25,57,165,45,04,48,239,46,13,82,049,42*7C
$GPGSV,3,2,12,20,14,124,28,23,50,071,48,16,18,053,39,27,40,186,33*73
$GPGSV,3,3,12,10,10,299,36,08,13,195,32,07,01,001,20,06,03,352,*7F
$GPGLL,5231.7720,N,1323.3177,E,000031.0,A,,*00
$GPGGA,000031.000,5231.7720,N,01323.3177,E,1,08,1.0,0.0,M,0.0,M,,*61
$GPGSA,A,3,25,20,23,24,16,13,11,1,4,,,,1.763,0.931,1.497*33
$GPRMC,000031.000,A,5231.7720,N,01323.3177,E,37.830,68.243,030108,0.0,E,*4E
$GPGST,000031.0,14.0,10.9,6.3,76.5,6.1,9.8,22.2*6D
$GPVTG,78.8,T,80.9,M,37.830,N,70.000,K,A*2D
$GPGSV,3,1,12,02,39,291,45,25,57,165,45,04,48,239,46,13,82,049,42*7C
$GPGSV,3,2,12,20,14,124,28,23,50,071,48,16,18,053,39,27,40,186,33*73
$GPGSV,3,3,12,10,10,299,36,08,13,195,32,07,01,001,20,06,03,352,*7F
$GPGLL,5231.7759,N,1323.3337,E,000032.0,A,,*0B
$GPGGA,000032.000,5231.7759,N,01323.3337,E,1,08,1.0,0.0,M,0.0,M,,*6A
$GPGSA,A,3,25,20,23,24,16,13,11,1,4,,,,1.763,0.931,1.497*33
$GPRMC,000032.000,A,5231.7759,N,01323.3337,E,37.830,68.243,030108,0.0,E,*45
$GPGST,000032.0,14.0,10.9,6.3,76.5,6.1,9.8,22.2*6E
$GPVTG,78.8,T,80.9,M,37.830,N,70.000,K,A*2D
$GPGSV,3,1,12,02,39,291,45,25,57,165,45,04,48,239,46,13,82,049,42*7C
$GPGSV,3,2,12,20,14,124,28,23,50,071,48,16,18,053,39,27,40,186,33*73
$GPGSV,3,3,12,10,10,299,36,08,13,195,32,07,01,001,20,06,03,352,*7F
$GPGLL,5231.7798,N,1323.3497,E,000033.0,A,,*0A
$GPGGA,000033.000,5231.7798,N,01323.3497,E,1,08,1.0,0.0,M,0.0,M,,*6B
$GPGSA,A,3,25,20,23,24,16,13,11,1,4,,,,1.763,0.931,1.497*33
$GPRMC,000033.000,A,5231.7798,N,01323.3497,E,37.830,68.243,030108,0.0,E,*44
$GPGST,000033.0,14.0,10.9,6.3,76.5,6.1,9.8,22.2*6F
$GPVTG,78.8,T,80.9,M,37.830,N,70.000,K,A*2D
$GPGSV,3,1,12,02,39,291,45,25,57,165,45,04,48,239,46,13,82,049,42*7C
$GPGSV,3,2,12,20,14,124,28,23,50,071,48,16,18,053,39,27,40,186,33*73
$GPGSV,3,3,12,10,10,299,36,08,13,195,32,07,01,001,20,06,03,352,*7F
$GPGLL,5231.7837,N,1323.3657,E,000034.0,A,,*09
$GPGGA,000034.000,5231.7837,N,01323.3657,E,1,08,1.0,0.0,M,0.0,M,,*68
$GPGSA,A,3,25,20,23,24,16,13,11,1,4,,,,1.763,0.931,1.497*33
$GPRMC,000034.000,A,5231.7837,N,01323.3657,E,37.830,68.243,030108,0.0,E,*47
$GPGST,000034.0,14.0,10.9,6.3,76.5,6.1,9.8,22.2*68
$GPVTG,78.8,T,80.9,M,37.830,N,70.000,K,A*2D
$GPGSV,3,1,12,02,39,291,45,25,57,165,45,04,48,239,46,13,82,049,42*7C
$GPGSV,3,2,12,20,14,124,28,23,50,071,48,16,18,053,39,27,40,186,33*73
$GPGSV,3,3,12,10,10,299,36,08,13,195,32,07,01,001,20,06,03,352,*7F
$GPGLL,5231.7800,N,1323.3778,E,000035.0,A,,*00
$GPGGA,000035.000,5231.7800,N,01323.3778,E,1,08,1.0,0.0,M,0.0,M,,*61
$GPGSA,A,3,25,20,23,24,16,13,11,1,4,,,,1.763,0.931,1.497*33
$GPRMC,000035.000,A,5231.7800,N,01323.3778,E,37.830,146.357,030108,0.0,E,*77
$GPGST,000035.0,14.0,10.9,6.3,76.5,6.1,9.8,22.2*69
$GPVTG,78.8,T,80.9,M,37.830,N,70.000,K,A*2D
$GPGSV,3,1,12,02,39,291,45,25,57,165,45,04,48,239,46,13,82,049,42*7C
$GPGSV,3,2,12,20,14,124,28,23,50,071,48,16,18,053,39,27,40,186,33*73
$GPGSV,3,3,12,10,10,299,36,08,13,195,32,07,01,001,20,06,03,352,*7F
$GPGLL,5231.7712,N,1323.3873,E,000036.0,A,,*0B
$GPGGA,000036.000,5231.7712,N,01323.3873,E,1,08,1.0,0.0,M,0.0,M,,*6A
$GPGSA,A,3,25,20,23,24,16,13,11,1,4,,,,1.763,0.931,1.497*33
$GPRMC,000036.000,A,5231.7712,N,01323.3873,E,37.830,146.357,030108,0.0,E,*7C
$GPGST,000036.0,14.0,10.9,6.3,76.5,6.1,9.8,22.2*6A
$GPVTG,78.8,T,80.9,M,37.830,N,70.000,K,A*2D
$GPGSV,3,1,12,02,39,291,45,25,57,165,45,04,48,239,46,13,82,049,42*7C
$GPGSV,3,2,12,20,14,124,28,23,50,071,48,16,18,053,39,27,40,186,33*73
$GPGSV,3,3,12,10,10,299,36,08,13,195,32,07,01,001,20,06,03,352,*7F
$GPGLL,5231.7641,N,1323.3951,E,000037.0,A,,*0C
$GPGGA,000037.000,5231.7641,N,01323.3951,E,1,08,1.0,0.0,M,0.0,M,,*6D
$GPGSA,A,3,25,20,23,24,16,13,11,1,4,,,,1.763,0.931,1.497*33
$GPRMC,000037.000,A,5231.7641,N,01323.3951,E,37.830,146.357,030108,0.0,E,*7B
$GPGST,000037.0,14.0,10.9,6.3,76.5,6.1,9.8,22.2*6B
$GPVTG,78.8,T,80.9,M,37.830,N,70.000,K,A*2D
